City_ID,City,Lat,Lng,Max Temp,Humidity,Cloudiness,Wind Speed,Country,Date
0,adamstown,-25.066,-130.1015,25.05,83,100,4.99,PN,1710405785
1,ushuaia,-54.8,-68.3,4.81,81,20,4.63,AR,1710405805
2,invercargill,-46.4,168.35,10.57,93,99,3.13,NZ,1710405805
3,aasiaat,68.7098,-52.8699,-19.42,99,100,1.39,GL,1710405806
4,bethel,41.3712,-73.414,6.23,83,0,0.97,US,1710405806
5,vorkuta,67.5,64.0,-15.17,93,94,3.45,RU,1710405807
6,port-aux-francais,-49.35,70.2167,5.54,91,99,3.66,TF,1710405807
7,udachny,66.4167,112.4,-19.51,88,65,2.11,RU,1710405808
8,puerto natales,-51.7236,-72.4875,3.69,77,68,5.57,CL,1710405808
9,shijiang,27.0819,110.7933,14.58,83,96,2.39,CN,1710405809
10,hawaiian paradise park,19.5933,-154.9731,21.13,89,20,0.0,US,1710405809
11,papatowai,-46.5619,169.4708,11.12,83,89,4.7,NZ,1710405810
12,utrik,11.2278,169.8474,26.52,79,100,9.45,MH,1710405810
13,georgetown,5.4112,100.3354,33.96,55,20,4.12,MY,1710405811
14,namibe,-15.1961,12.1522,25.34,66,17,2.47,AO,1710405811
15,port elizabeth,-33.918,25.5701,22.95,71,20,6.17,ZA,1710405812
16,whitehorse,60.7161,-135.0538,-0.57,87,100,9.77,CA,1710405812
17,tiksi,71.6872,128.8694,-28.59,97,19,3.05,RU,1710405813
18,qaisumah,28.3112,46.1273,25.98,19,75,6.69,SA,1710405813
19,basoko,1.2391,23.616,30.99,52,7,0.99,CD,1710405814
20,port saint john's,-31.6229,29.5448,19.99,90,97,4.02,ZA,1710405814
21,grytviken,-54.2811,-36.5092,3.78,90,6,1.27,GS,1710405815
22,kingston,17.997,-76.7936,27.53,61,20,1.03,JM,1710405815
23,sernur,56.9333,49.1536,-1.33,92,100,6.57,RU,1710405816
24,blackmans bay,-43.0167,147.3167,13.07,63,0,0.45,AU,1710405817
25,ribeira grande,38.5167,-28.7,17.22,88,75,7.72,PT,1710405817
26,enewetak,11.3474,162.3373,26.6,79,100,9.54,MH,1710405818
27,qaqortoq,60.7167,-46.0333,-11.57,90,68,2.86,GL,1710405818
28,tulun,54.5611,100.5792,-3.36,70,99,2.1,RU,1710405819
29,nemuro,43.3236,145.575,-1.36,82,99,3.99,JP,1710405819
30,yellowknife,62.456,-114.3525,-6.99,97,20,3.6,CA,1710405820
31,west island,-12.1568,96.8225,29.99,70,77,3.6,CC,1710405820
32,minas de marcona,-15.2119,-75.1103,17.76,86,97,4.33,PE,1710405821
33,bongaree,-27.0797,153.1586,26.01,81,15,3.5,AU,1710405821
34,januaria,-15.4833,-44.3667,21.16,98,26,1.33,BR,1710405822
35,lata,40.1629,-8.3327,13.6,68,38,2.24,PT,1710405822
36,uturoa,-16.7333,-151.4333,28.79,72,100,2.33,PF,1710405823
37,red chute,32.556,-93.6132,21.94,86,100,4.12,US,1710405823
38,vuktyl,63.8567,57.3094,-9.49,85,100,3.0,RU,1710405824
39,luang namtha,20.9497,101.4011,33.01,38,5,1.03,LA,1710405824
40,longyearbyen,78.2186,15.6401,-19.09,50,20,5.66,SJ,1710405825
41,iskateley,67.6803,53.1512,-8.88,93,92,5.36,RU,1710405825
42,atar,20.5169,-13.0499,23.31,16,0,5.92,MR,1710405826
43,aljezur,37.3191,-8.8033,15.34,80,45,1.83,PT,1710405826
44,dickinson,29.4608,-95.0513,23.05,93,100,4.12,US,1710405827
45,wailua homesteads,22.0669,-159.378,22.24,92,20,4.12,US,1710405827
46,college,64.8569,-147.8028,-14.0,62,100,1.54,US,1710405828
47,machico,32.7,-16.7667,19.45,82,20,0.0,PT,1710405828
48,tsiombe,-25.3,45.4833,36.47,34,0,3.43,MG,1710405829
49,waitangi,-43.9535,-176.5597,11.01,66,33,3.18,NZ,1710405829
50,puerto ayora,-0.7393,-90.3518,25.31,99,48,1.34,EC,1710405830
51,ridder,50.355,83.5133,-3.72,81,100,3.34,KZ,1710405830
52,sept-iles,50.2001,-66.3821,-1.71,95,100,2.06,CA,1710405732
53,rawson,-43.3002,-65.1023,14.26,40,0,9.53,AR,1710405831
54,margaret river,-33.95,115.0667,24.54,58,95,4.03,AU,1710405832
55,atuncolla,-15.6833,-70.15,8.67,80,100,2.3,PE,1710405832
56,marco island,25.9363,-81.7157,20.55,92,75,1.54,US,1710405833
57,albany,42.6001,-73.9662,8.75,77,93,1.34,US,1710405834
58,edinburgh of the seven seas,-37.0676,-12.3116,16.72,81,100,8.86,SH,1710405834
59,moranbah,-22.0016,148.0466,27.32,61,2,5.87,AU,1710405835
60,vilyuchinsk,52.9306,158.4028,2.15,92,100,8.9,RU,1710405835
61,biograd na moru,43.9433,15.4519,15.42,53,1,0.67,HR,1710405836
62,olonkinbyen,70.9221,-8.7187,-4.31,72,100,10.89,SJ,1710405836
63,midvagur,62.0511,-7.1939,4.46,75,75,13.38,FO,1710405837
64,benghazi,32.1167,20.0667,16.58,62,5,4.61,LY,1710405837
65,martapura,-3.4167,114.85,34.05,55,40,3.09,ID,1710405838
66,tura,25.5198,90.2201,32.64,17,15,3.9,IN,1710405839
67,ust-nera,64.5667,143.2,-26.26,99,84,0.43,RU,1710405839
68,masvingo,-20.0637,30.8277,34.82,25,5,3.08,ZW,1710405840
69,fale old settlement,-9.3852,-171.2468,29.6,71,10,4.41,TK,1710405840
70,nagqu,31.5,92.0,5.11,4,46,13.3,CN,1710405841
71,karratha,-20.7377,116.8463,32.59,58,26,8.88,AU,1710405841
72,mana,5.6592,-53.7767,25.56,88,46,4.69,GF,1710405842
73,tolanaro,-25.0319,46.9987,31.04,62,20,8.23,MG,1710405843
74,howard springs,-12.497,131.047,28.95,95,100,4.57,AU,1710405843
75,bredasdorp,-34.5322,20.0403,22.39,45,48,3.29,ZA,1710405844
76,camarinas,43.1311,-9.1817,15.52,93,98,10.44,ES,1710405844
77,lerwick,60.1545,-1.1494,8.0,78,36,11.55,GB,1710405845
78,atafu village,-8.5421,-172.5159,29.73,70,17,5.27,TK,1710405845
79,redding,40.5865,-122.3917,11.87,64,0,4.12,US,1710405686
80,prince rupert,54.3161,-130.3201,7.05,87,100,18.01,CA,1710405846
81,kodiak,57.79,-152.4072,-4.27,74,100,3.09,US,1710405847
82,tralee,52.2704,-9.7026,12.14,87,100,4.63,IE,1710405847
83,punta arenas,-53.15,-70.9167,5.06,75,0,11.32,CL,1710405736
84,port mathurin,-19.6833,63.4167,26.64,76,1,8.29,MU,1710405848
85,acarau,-2.8856,-40.12,25.85,87,100,3.61,BR,1710405849
86,chengzihe,45.3333,131.0667,-0.83,91,95,0.35,CN,1710405849
87,mingyue,43.1069,128.9217,7.79,34,15,4.62,CN,1710405850
88,thompson,55.7435,-97.8558,-8.91,86,100,1.54,CA,1710405748
89,fort st. john,56.2499,-120.8529,2.94,60,75,7.72,CA,1710405851
90,funafuti,-8.5243,179.1942,30.0,84,75,1.54,TV,1710405852
91,bathsheba,13.2167,-59.5167,26.34,83,40,7.72,BB,1710405852
92,ostersund,63.1792,14.6357,6.45,70,0,4.63,SE,1710405853
93,chios,38.3678,26.1358,14.92,77,40,2.06,GR,1710405853
94,st. john's,47.5649,-52.7093,1.55,96,100,8.49,CA,1710405854
95,jamestown,42.097,-79.2353,7.8,81,0,0.0,US,1710405775
96,okeechobee,27.2439,-80.8298,20.56,96,0,0.0,US,1710405855
97,zimmerman,45.4433,-93.59,8.28,45,0,4.12,US,1710405856
98,port lincoln,-34.7333,135.8667,18.17,83,67,9.96,AU,1710405856
99,afaahiti,-17.75,-149.2833,27.93,79,100,1.02,PF,1710405857
100,mugia,43.1041,-9.2179,15.51,94,99,10.99,ES,1710405857
101,kendraparha,20.5,86.4167,33.33,47,65,7.71,IN,1710405858
102,penzance,50.1186,-5.5371,11.62,100,75,11.32,GB,1710405858
103,hamilton,39.1834,-84.5333,15.69,72,20,3.09,US,1710405859
104,cidreira,-30.1811,-50.2056,21.83,91,3,3.21,BR,1710405859
105,ilulissat,69.2167,-51.1,-14.99,85,100,0.0,GL,1710405860
106,revda,56.801,59.9303,-0.14,89,100,4.87,RU,1710405860
107,val-d'or,48.1002,-77.7828,-3.95,93,40,1.03,CA,1710405861
108,new norfolk,-42.7826,147.0587,13.72,72,0,0.96,AU,1710405861
109,nar'yan-mar,67.6713,53.087,-8.83,93,92,5.36,RU,1710405862
110,bilibino,68.0546,166.4372,-21.91,100,38,2.09,RU,1710405862
111,talnakh,69.4865,88.3972,-15.44,82,95,6.19,RU,1710405863
112,kabansk,52.0486,106.6528,-1.91,55,100,2.14,RU,1710405863
113,prado,-17.3411,-39.2208,24.14,93,54,1.79,BR,1710405582
114,gebeit,21.0667,36.3167,35.05,28,6,3.67,SD,1710405864
115,caleta de carquin,-11.0925,-77.6267,21.85,91,47,1.83,PE,1710405865
116,pacific grove,36.6177,-121.9166,13.01,87,0,2.06,US,1710405866
117,tazacorte,28.629,-17.9293,19.54,82,20,3.58,ES,1710405866
118,demopolis,32.5176,-87.8364,13.97,88,0,0.0,US,1710405867
119,cogealac,44.55,28.5667,5.03,92,100,4.81,RO,1710405868
120,charters towers,-20.1,146.2667,28.2,56,97,4.0,AU,1710405868
121,petropavlovsk-kamchatsky,53.0452,158.6483,1.33,86,75,22.35,RU,1710405869
122,micheweni,-4.9667,39.8333,31.27,64,78,2.67,TZ,1710405869
123,andrews,32.3187,-102.5457,13.59,33,0,2.57,US,1710405870
124,festus,38.2206,-90.396,19.71,92,100,4.77,US,1710405870
125,sambalpur,21.45,83.9667,35.93,15,0,4.84,IN,1710405871
126,vila velha,-20.3297,-40.2925,24.41,96,20,1.54,BR,1710405579
127,hadibu,12.65,54.0333,28.84,59,24,6.1,YE,1710405872
128,murun-kuren,49.6342,100.1625,1.08,64,100,0.07,MN,1710405872
129,kargasok,59.0556,80.8572,-8.91,84,100,5.36,RU,1710405873
130,isafjordur,66.0755,-23.124,-1.98,74,100,5.66,IS,1710405874
131,san martin,-33.081,-68.4681,21.3,81,0,7.37,AR,1710405587
132,zouerate,22.7187,-12.4521,19.33,56,0,4.82,MR,1710405875
133,praia da vitoria,38.7333,-27.0667,17.14,77,40,7.44,PT,1710405876
134,davydovo,55.6097,38.8569,0.46,89,100,3.62,RU,1710405876
135,kununurra,-15.7667,128.7333,30.99,74,100,1.03,AU,1710405877
136,port alfred,-33.5906,26.891,19.54,92,87,2.68,ZA,1710405877
137,kirkwall,58.9848,-2.9587,7.76,81,20,6.69,GB,1710405878
138,cafayate,-26.073,-65.9761,22.92,77,96,1.28,AR,1710405878
139,kapa'a,22.0752,-159.319,22.99,92,20,4.12,US,1710405879
140,polyarnyy,69.1989,33.4478,-6.79,87,100,5.28,RU,1710405879
141,boromo,11.75,-2.9333,35.67,14,23,0.39,BF,1710405880
142,geraldton,-28.7667,114.6,30.23,51,0,11.32,AU,1710405880
143,hithadhoo,-0.6,73.0833,28.47,68,2,4.76,MV,1710405881
144,caxias,38.7031,-9.2767,16.37,87,75,3.58,PT,1710405881
145,guerrero negro,27.9769,-114.0611,15.09,75,70,7.01,MX,1710405882
146,pisco,-13.7,-76.2167,21.03,83,0,2.57,PE,1710405855
147,larreynaga,12.6769,-86.5719,23.65,65,0,1.87,NI,1710405883
148,newman,37.3138,-121.0208,12.8,46,0,6.26,US,1710405883
149,biltine,14.5333,20.9167,36.1,7,99,5.89,TD,1710405884
150,buka,40.8108,69.1986,1.72,93,100,4.66,UZ,1710405884
151,keflavik,64.0049,-22.5624,1.24,75,75,6.69,IS,1710405885
152,odda,60.0691,6.5457,6.18,99,100,4.83,NO,1710405885
153,callao,-12.0667,-77.15,24.29,78,75,3.6,PE,1710405839
154,margate,51.3813,1.3862,11.04,86,100,3.58,GB,1710405721
155,taroa,8.7058,171.2275,27.01,80,100,9.92,MH,1710405887
156,kaa-khem,51.6833,94.7333,-3.66,87,100,0.81,RU,1710405887
157,gao,16.6362,1.637,33.62,6,22,5.95,ML,1710405888
158,bamyan,34.75,67.25,-3.48,47,0,1.38,AF,1710405889
159,sandnessjoen,66.0217,12.6316,4.12,87,75,2.06,NO,1710405889
160,codrington,-38.2667,141.9667,14.76,71,36,7.21,AU,1710405890
161,ao luek,8.378,98.7212,36.07,52,84,2.64,TH,1710405890
162,santiago,-33.4569,-70.6483,21.44,50,0,1.54,CL,1710405304
163,berdigestyakh,62.0989,126.6992,-14.03,96,100,0.97,RU,1710405892
164,nuuk,64.1835,-51.7216,-6.66,93,75,0.51,GL,1710405892
165,susuman,62.7833,148.1667,-23.9,100,12,0.45,RU,1710405893
166,constantia,44.1833,28.65,5.39,89,100,4.63,RO,1710405730
167,al jawf,29.5,38.75,21.96,17,95,2.8,SA,1710405894
168,kolonia town,6.964,158.206,28.0,74,100,3.09,FM,1710405894
169,ketovo,55.355,65.3258,-4.46,85,100,4.96,RU,1710405895
170,naze,28.3667,129.4833,16.51,64,92,1.67,JP,1710405895
171,hasaki,35.7333,140.8333,13.22,45,3,3.96,JP,1710405896
172,sambava,-14.2667,50.1667,29.14,67,100,5.13,MG,1710405896
173,inarajan village,13.2736,144.7484,28.54,83,100,7.89,GU,1710405897
174,tadine,-21.55,167.8833,25.47,87,100,5.52,NC,1710405897
175,petukhovo,55.0692,67.9019,-5.91,89,100,5.39,RU,1710405898
176,nueva gerona,21.8833,-82.8,25.03,82,5,4.86,CU,1710405898
177,anadyr,64.75,177.4833,-14.72,78,40,3.0,RU,1710405899
178,gadzhiyevo,69.2551,33.3362,-7.41,89,100,5.0,RU,1710405899
179,bedele,8.456,36.353,26.59,34,23,2.5,ET,1710405900
180,garoua boulai,5.8833,14.55,31.18,33,100,1.55,CM,1710405901
181,plesetsk,62.708,40.2916,-0.33,97,100,3.87,RU,1710405902
182,tomatlan,19.9333,-105.25,17.58,76,49,1.21,MX,1710405902
183,olinda,-8.0089,-34.8553,25.85,100,75,1.54,BR,1710405828
184,tugulym,57.0591,64.6425,-0.93,76,100,3.44,RU,1710405904
185,badger,64.8,-147.5333,-14.05,68,100,1.54,US,1710405904
186,vorgashor,67.5833,63.95,-15.77,94,95,3.43,RU,1710405905
187,tromso,69.6496,18.957,-2.99,63,40,1.03,NO,1710405775
188,island harbour,50.724,-1.2758,11.67,88,100,3.58,GB,1710405906
189,hermanus,-34.4187,19.2345,23.22,58,22,3.62,ZA,1710405906
190,kupang,-10.1667,123.5833,28.32,100,75,1.54,ID,1710405907
191,trairi,-3.2778,-39.2689,24.75,92,100,2.06,BR,1710405908
192,xunchang,28.4543,104.715,19.49,49,60,1.23,CN,1710405908
193,calama,-22.4667,-68.9333,13.27,38,0,7.72,CL,1710405909
194,lazaro cardenas,17.9583,-102.2,21.48,88,47,1.58,MX,1710405909
195,sirjan,29.452,55.6814,17.95,16,19,2.98,IR,1710405910
196,ambon,-3.6954,128.1814,28.82,95,40,1.54,ID,1710405911
197,vallenar,-28.5708,-70.7581,18.27,70,0,0.58,CL,1710405911
198,remire-montjoly,4.9167,-52.2667,27.02,83,75,3.6,GF,1710405912
199,camocim,-2.9022,-40.8411,24.93,92,100,3.73,BR,1710405912
200,privolzhskiy,51.4,46.0333,-4.83,68,78,2.52,RU,1710405913
201,ancud,-41.8697,-73.8203,10.18,81,31,1.78,CL,1710405913
202,viransehir,37.2353,39.7631,16.36,40,100,6.86,TR,1710405914
203,isla vista,34.4133,-119.861,14.2,59,0,0.0,US,1710405914
204,taltal,-25.4,-70.4833,18.26,86,50,0.82,CL,1710405915
205,lebu,-37.6167,-73.65,12.65,93,97,4.04,CL,1710405915
206,uberaba,-19.7483,-47.9319,22.32,94,0,3.6,BR,1710405916
207,cueto,20.6439,-75.9356,23.29,91,17,2.99,CU,1710405916
208,vilyuysk,63.7553,121.6247,-15.0,85,100,1.34,RU,1710405917
209,taro,-8.3862,115.28,23.0,97,100,1.27,ID,1710405918
210,phibun mangsahan,15.2447,105.2291,35.99,44,77,5.64,TH,1710405918
211,ismayilli,40.779,48.1638,6.4,87,100,1.83,AZ,1710405919
212,nyandoma,61.669,40.1991,-0.26,99,100,4.0,RU,1710405919
213,qamdo,31.1667,97.2333,5.15,18,40,9.95,CN,1710405920
214,kanungu,-0.9575,29.7897,29.68,30,30,2.38,UG,1710405920
215,vanimo,-2.6741,141.3028,26.53,87,98,4.0,PG,1710405921
216,axim,4.8699,-2.2405,29.75,75,77,3.63,GH,1710405921
217,amahai,-3.3333,128.9167,28.21,78,100,2.51,ID,1710405922
218,saipan,15.1355,145.701,28.39,69,20,6.17,MP,1710405923
219,thulamahashi,-24.7246,31.1994,27.28,51,55,3.04,ZA,1710405923
220,lihue,21.9789,-159.3672,22.58,93,20,4.12,US,1710405924
221,tuy hoa,13.0833,109.3,27.84,62,32,3.8,VN,1710405924
222,iqaluit,63.7506,-68.5145,-18.15,71,100,0.0,CA,1710405925
223,pandan,14.0453,124.1694,26.35,82,14,5.19,PH,1710405925
224,inhambane,-23.865,35.3833,26.99,78,75,2.24,MZ,1710405926
225,sao joao da barra,-21.6403,-41.0511,24.12,85,81,1.41,BR,1710405926
226,coahuayana de hidalgo,18.7,-103.6583,20.28,68,98,1.85,MX,1710405927
227,igarka,67.4667,86.5833,-13.02,75,99,4.43,RU,1710405927
228,brookhaven,31.5791,-90.4407,15.95,97,29,3.12,US,1710405928
229,brisas de zicatela,15.8369,-97.0419,25.32,72,12,2.63,MX,1710405928
230,aswan,24.0934,32.907,29.61,11,0,2.57,EG,1710405929
231,nyagan,62.1406,65.3936,-7.26,77,25,4.21,RU,1710405929
232,guarapari,-20.6667,-40.4975,23.83,89,93,1.9,BR,1710405741
233,touros,-5.1989,-35.4608,26.82,86,90,2.72,BR,1710405930
234,paciran,-6.8767,112.3761,27.04,86,99,7.89,ID,1710405931
235,stanley,54.868,-1.6985,10.77,93,75,1.54,GB,1710405795
236,menongue,-14.6585,17.691,29.89,42,48,1.62,AO,1710405932
237,lompoc,34.6391,-120.4579,12.4,68,0,5.14,US,1710405932
238,rio preto da eva,-2.6994,-59.6997,23.34,99,69,1.08,BR,1710405933
239,la ronge,55.1001,-105.2842,-12.86,92,20,2.06,CA,1710405934
240,arkhangel'sk,64.5401,40.5433,-0.94,80,40,3.0,RU,1710405934
241,nogliki,51.8333,143.1667,-13.92,89,39,3.43,RU,1710405935
242,belmonte,-15.8631,-38.8828,24.85,89,12,1.37,BR,1710405935
243,zaozersk,69.4005,32.4476,-8.07,90,100,2.91,RU,1710405936
244,myitkyina,25.3833,97.4,31.71,22,51,0.57,MM,1710405936
245,puerto baquerizo moreno,-0.9,-89.6,26.14,82,79,0.73,EC,1710405937
246,pemangkat,1.1667,108.9667,28.3,75,40,6.12,ID,1710405938
247,san antonio de pale,-1.4014,5.6325,24.7,94,100,14.42,GQ,1710405938
248,sanibel,26.449,-82.0223,21.11,91,100,0.89,US,1710405939
249,plymouth,41.8334,-70.8328,6.04,83,75,0.0,US,1710405752
250,vryburg,-26.9566,24.7284,27.84,15,0,3.92,ZA,1710405940
251,ginir,7.1333,40.7,24.18,34,75,4.55,ET,1710405941
252,timimoun,29.2639,0.231,16.21,21,0,2.57,DZ,1710405941
253,dire,12.2833,-10.9667,31.22,16,35,1.46,ML,1710405942
254,chuhar jamali,24.3895,67.9923,31.71,14,0,2.32,PK,1710405942
255,kinablangan,7.6947,126.5503,26.29,85,92,3.26,PH,1710405943
256,santa cruz,-17.8,-63.1667,23.7,94,75,4.12,BO,1710405943
257,coquimbo,-29.9533,-71.3436,14.85,94,0,1.54,CL,1710405944
258,bouarfa,32.53,-1.95,13.25,60,3,2.35,MA,1710405944
259,umm kaddadah,13.6017,26.6876,37.83,7,96,3.33,SD,1710405945
260,playa del ingles,27.7567,-15.5787,19.86,83,46,3.39,ES,1710405911
261,raduzhny,62.0961,77.475,-11.08,73,58,4.52,RU,1710405946
262,baikonur,45.6167,63.3167,2.2,46,6,3.54,KZ,1710405946
263,kovdor,67.5662,30.4758,-5.5,93,100,2.65,RU,1710405947
264,egilsstadir,65.2653,-14.3948,-3.05,93,75,8.23,IS,1710405947
265,mahina,-17.5065,-149.489,28.87,74,100,1.54,PF,1710405948
266,bayevo,53.2833,80.7667,-7.6,86,100,6.49,RU,1710405949
267,obo,5.3998,26.4869,38.87,22,96,1.47,CF,1710405949
268,jiangyou,31.7667,104.7167,16.62,64,100,1.83,CN,1710405950
269,mukalla,14.5425,49.1242,29.48,55,2,5.15,YE,1710405950
270,ampanihy,-24.7,44.75,35.03,36,0,4.54,MG,1710405951
271,falenki,58.3613,51.5946,-0.54,95,100,5.29,RU,1710405951
272,sao tome,0.3365,6.7273,24.68,86,100,4.51,ST,1710405952
273,vuokatti,64.146,28.2697,0.92,98,100,5.99,FI,1710405952
274,minab,27.1467,57.0801,28.0,31,3,2.43,IR,1710405953
275,sao felix do xingu,-6.6447,-51.995,22.81,99,100,0.4,BR,1710405953
276,balqash,46.8481,74.995,-2.67,63,40,5.0,KZ,1710405954
277,crane,31.3974,-102.3501,17.25,18,23,3.48,US,1710405954
278,rajgarh,28.6333,75.3833,29.16,18,0,2.89,IN,1710405955
279,portland,45.5234,-122.6762,5.96,88,20,2.06,US,1710405193
280,arraial do cabo,-22.9661,-42.0278,23.93,85,97,4.74,BR,1710405956
281,suva,-18.1416,178.4415,26.71,83,75,2.06,FJ,1710405956
282,mount gambier,-37.8333,140.7667,14.46,69,3,5.96,AU,1710405957
283,zapolyarnyy,69.4154,30.8136,-6.4,93,100,2.99,RU,1710405957
284,fort mcmurray,56.7268,-111.381,-5.23,79,0,1.03,CA,1710405958
285,khandyga,62.6667,135.6,-18.73,99,95,1.2,RU,1710405958
286,leava,-14.3,-178.1667,29.69,75,100,3.9,WF,1710405959
287,massawa,15.6097,39.45,33.67,49,5,2.82,ER,1710405959
288,nago,26.5881,127.9761,21.47,61,79,1.09,JP,1710405960
289,al bardiyah,31.7561,25.0865,17.27,51,0,2.86,LY,1710405960
290,tazovsky,67.4667,78.7,-17.04,93,88,5.9,RU,1710405961
291,oktyabr'skiy,54.4815,53.471,-3.95,89,100,6.73,RU,1710405962
292,inverell,-29.7833,151.1167,25.64,45,1,0.45,AU,1710405963
293,san patricio,28.017,-97.5169,23.08,91,57,7.27,US,1710405963
294,toliara,-23.35,43.6667,32.03,57,0,5.18,MG,1710405964
295,sainte-suzanne,-20.9061,55.6089,30.12,74,100,7.2,RE,1710405964
296,barkot,30.8167,78.2,20.8,29,34,1.87,IN,1710405965
297,novo aripuana,-5.1206,-60.3797,24.16,99,99,1.21,BR,1710405965
298,yeppoon,-23.1333,150.7333,27.88,89,3,6.85,AU,1710405966
299,tamanrasset,22.785,5.5228,22.95,8,0,2.57,DZ,1710405966
300,vanino,49.0869,140.2543,-5.04,98,93,0.7,RU,1710405967
301,jayapura,-2.5333,140.7,25.66,88,100,3.41,ID,1710405967
302,verkhnevilyuysk,63.4453,120.3167,-14.7,91,100,1.82,RU,1710405968
303,lichuan,30.3,108.85,12.36,69,97,3.68,CN,1710405968
304,zeya,53.75,127.2667,-6.11,89,96,0.36,RU,1710405969
305,selizharovo,56.8519,33.4487,3.04,65,78,3.91,RU,1710405969
306,cuichapa,18.7667,-96.8667,21.39,71,39,1.7,MX,1710405970
307,pizarro,4.9533,-77.366,25.45,93,52,1.84,CO,1710405971
308,mandalgovi,45.7625,106.2708,6.07,39,17,4.41,MN,1710405971
309,haiku-pauwela,20.9219,-156.3051,21.69,92,100,1.54,US,1710405972
310,trinidad,-14.8333,-64.9,24.4,96,100,1.68,BO,1710405972
311,chonchi,-42.6128,-73.8092,7.29,96,10,1.24,CL,1710405973
312,panyutyne,48.9333,36.2833,4.26,65,100,6.1,UA,1710405973
313,alofi,-19.0595,-169.9187,24.94,94,100,1.03,NU,1710405974
314,lodja,-3.4833,23.4333,34.97,42,5,1.56,CD,1710405974
315,mahibadhoo,3.7833,72.9667,28.27,72,23,4.27,MV,1710405975
316,cabo san lucas,22.8909,-109.9124,21.95,63,100,5.36,MX,1710405975
317,kutulik,53.3508,102.7839,-4.61,77,89,2.77,RU,1710405976
318,aykhal,66.0,111.5,-20.71,89,72,2.41,RU,1710405976
319,tulcingo de valle,18.05,-98.4333,20.67,54,70,1.35,MX,1710405977
320,laminusa,5.5549,120.9136,28.06,75,97,2.11,PH,1710405977
321,mejit,10.2753,170.8646,26.57,80,100,8.97,MH,1710405978
322,carnarvon,-24.8667,113.6333,31.52,60,44,4.54,AU,1710405978
323,bonthe,7.5264,-12.505,27.7,78,100,2.37,SL,1710405979
324,mount pearl,47.5166,-52.7813,1.09,96,100,7.72,CA,1710405979
325,brownwood,31.7093,-98.9912,21.09,90,75,5.66,US,1710405965
326,kokoda,-8.8785,147.7407,26.08,92,100,1.29,PG,1710405980
327,annau,37.8876,58.516,8.72,57,100,7.2,TM,1710405981
328,avarua,-21.2078,-159.775,27.03,89,75,5.14,CK,1710405981
329,roslavl',53.9528,32.8639,1.44,73,7,3.02,RU,1710405982
330,bethanie,-26.4833,17.15,24.8,14,6,2.78,NA,1710405982
331,strezhevoy,60.7333,77.5889,-8.35,88,100,4.02,RU,1710405982
332,lewiston orchards,46.3804,-116.9754,4.03,82,0,3.09,US,1710405982
333,mirny,62.5353,113.9611,-14.31,42,100,4.02,RU,1710405983
334,castillos,-34.1667,-53.8333,20.87,96,100,1.52,UY,1710405983
335,lannemezan,43.1252,0.384,15.27,50,86,0.72,FR,1710405983
336,ciudad lazaro cardenas,17.9583,-102.2,21.48,88,47,1.58,MX,1710405767
337,ballina,-28.8667,153.5667,23.21,74,10,4.58,AU,1710405848
338,banjar,-8.19,114.9675,26.58,94,100,3.17,ID,1710405984
339,mount isa,-20.7333,139.5,33.87,29,17,3.09,AU,1710405984
340,luocheng,29.3848,104.0286,19.98,42,78,2.61,CN,1710405984
341,arteche,12.2645,125.4048,27.06,71,2,3.82,PH,1710405984
342,sisimiut,66.9395,-53.6735,-12.16,83,91,1.93,GL,1710405985
343,punta del este,-34.9667,-54.95,22.06,98,100,2.57,UY,1710405985
344,tilisarao,-32.7329,-65.2911,23.84,76,91,4.66,AR,1710405986
345,ladario,-19.0047,-57.6017,26.04,74,94,0.91,BR,1710405986
346,bandarbeyla,9.4942,50.8122,28.66,61,47,5.19,SO,1710405986
347,carandai,-20.9536,-43.8064,17.71,99,69,1.28,BR,1710405986
348,ataq,14.5377,46.8319,29.52,18,7,6.91,YE,1710405987
349,as suwayq,23.8494,57.4386,26.16,45,78,3.18,OM,1710405987
350,pacocha,-17.5833,-71.3333,21.22,89,99,1.93,PE,1710405988
351,hotan,37.0997,79.9269,12.94,20,99,3.69,CN,1710405988
352,antsiranana,-12.2787,49.2917,31.42,66,40,6.17,MG,1710405988
353,vadso,70.0744,29.7487,-3.91,86,75,5.14,NO,1710405988
354,holualoa,19.6228,-155.9522,21.91,84,0,5.14,US,1710405989
355,poronaysk,49.2167,143.1167,-10.79,88,78,1.24,RU,1710405989
356,nova sintra,14.8667,-24.7167,19.78,73,2,6.13,CV,1710405990
357,lasem,-6.6922,111.4527,27.07,87,100,7.25,ID,1710405990
358,scottburgh,-30.2867,30.7532,21.5,78,100,6.98,ZA,1710405990
359,saint-pierre,-21.3393,55.4781,29.82,70,75,8.23,RE,1710405990
360,constitucion,-35.3333,-72.4167,12.14,83,0,3.04,CL,1710405991
361,silver springs,29.1044,-82.0206,16.08,92,9,1.51,US,1710405991
362,oamaru,-45.0784,170.9801,10.77,80,11,2.8,NZ,1710405899
363,hobyo,5.3505,48.5268,30.37,56,52,8.37,SO,1710405992
364,ventspils,57.3894,21.5606,5.96,87,20,6.17,LV,1710405508
365,laela,-8.5667,32.05,23.93,65,61,2.63,TZ,1710405992
366,shihezi,44.3,86.0333,4.12,65,100,3.6,CN,1710405869
367,okha,53.5739,142.9478,-15.74,93,9,4.81,RU,1710405993
368,albertina,-22.2008,-46.6158,18.83,89,2,1.68,BR,1710405993
369,adrar,20.5022,-10.0711,22.71,17,0,6.62,MR,1710405993
370,manokwari,-0.8667,134.0833,26.15,87,100,3.87,ID,1710405993
371,fortuna,40.5982,-124.1573,6.19,94,20,0.0,US,1710405890
372,nadym,65.5333,72.5167,-11.76,82,99,6.04,RU,1710405994
373,shubarshi,48.5872,57.1869,-2.63,83,70,3.03,KZ,1710405994
374,east london,-33.0153,27.9116,19.52,88,100,3.6,ZA,1710405916
375,camana,-16.6228,-72.7111,22.04,90,100,2.37,PE,1710405995
376,quellon,-43.1167,-73.6167,8.03,88,9,3.02,CL,1710405995
377,springbok,-29.6643,17.8865,19.32,42,0,6.17,ZA,1710405995
378,patong,7.8961,98.2966,34.08,67,31,6.41,TH,1710405996
379,fort bragg,35.139,-79.006,11.56,78,0,0.89,US,1710405996
380,gizo,-8.103,156.8419,28.96,81,100,3.72,SB,1710405996
381,dudinka,69.4058,86.1778,-15.21,85,95,6.26,RU,1710405997
382,acapulco de juarez,16.8634,-99.8901,23.8,78,100,1.3,MX,1710405997
383,panaba,21.2833,-88.2667,22.4,95,2,3.74,MX,1710405998
384,targuist,34.9377,-4.3186,12.41,65,15,0.66,MA,1710405999
385,lorengau,-2.0226,147.2712,28.42,79,100,5.59,PG,1710405999
386,klyuchi,52.2667,79.1667,-7.79,83,100,5.82,RU,1710405999
387,muscat,23.6139,58.5922,26.01,47,49,3.4,OM,1710405871
388,la jolla,32.8473,-117.2742,13.52,91,0,1.54,US,1710406000
389,ambalangoda,6.2355,80.0538,29.43,70,98,5.5,LK,1710406000
390,sona,45.4388,10.8255,13.6,76,63,1.03,IT,1710406001
391,kittila,67.6647,24.8936,-5.77,86,100,3.09,FI,1710406001
392,colchani,-20.3,-66.9333,11.94,75,100,2.8,BO,1710406002
393,bodo,67.28,14.405,-0.86,87,100,11.32,NO,1710406002
394,dalandzadgad,43.5708,104.425,13.63,8,0,4.17,MN,1710406003
395,yulinshi,38.2906,109.7494,14.31,16,0,6.94,CN,1710405867
396,murzuq,25.9155,13.9184,22.62,19,33,8.06,LY,1710406003
397,malaya vishera,58.8454,32.2222,1.84,89,100,4.46,RU,1710406003
398,santa rosa,14.3122,121.1114,31.99,71,37,6.48,PH,1710405713
399,diapaga,12.0708,1.7889,33.79,37,100,6.29,BF,1710406004
400,sarandi del yi,-33.35,-55.6333,23.62,65,69,4.44,UY,1710406004
401,klaksvik,62.2266,-6.589,4.51,76,100,13.37,FO,1710406004
402,olyokminsk,60.3736,120.4264,-8.48,90,100,0.66,RU,1710406005
403,weno,7.4515,151.8468,27.97,83,100,4.63,FM,1710406005
404,derzhavinsk,51.1,66.3167,-8.47,90,100,7.29,KZ,1710406005
405,porto novo,6.4965,2.6036,29.9,63,30,4.55,BJ,1710406005
406,kalabo,-14.97,22.6814,30.77,48,45,2.41,ZM,1710406006
407,seven pagodas,12.6264,80.1722,33.03,55,15,5.7,IN,1710405815
408,peitz,51.8584,14.4114,9.84,94,100,2.37,DE,1710406006
409,sinabang,2.4803,96.3801,29.96,61,99,1.1,ID,1710406007
410,kaspiyskiy,45.3929,47.3707,4.27,62,97,12.47,RU,1710406007
411,mogok,22.9167,96.5,27.57,18,2,3.36,MM,1710406007
412,mirriah,13.7073,9.1501,34.34,10,0,2.57,NE,1710406008
413,vytegra,61.0064,36.4481,-0.36,98,100,3.58,RU,1710406008
414,xiva,41.3783,60.3639,2.99,27,0,6.67,UZ,1710406008
415,sayre,41.979,-76.5155,10.03,67,68,0.9,US,1710406009
416,palangkaraya,-2.2,113.8333,34.11,48,66,0.56,ID,1710405832
417,colon,9.3592,-79.9014,23.84,90,89,4.47,PA,1710406009
418,mogocha,53.7333,119.7667,-4.76,93,100,1.16,RU,1710406010
419,kokopo,-4.352,152.2633,27.27,86,100,4.98,PG,1710406010
420,mili,6.0815,171.735,28.06,83,100,9.47,MH,1710406010
421,puerto leguizamo,-0.1934,-74.7819,23.17,98,84,0.9,CO,1710406011
422,xining,36.6167,101.7667,9.52,26,1,1.03,CN,1710406011
423,luwuk,-0.9516,122.7875,28.73,78,100,0.65,ID,1710406012
424,thinadhoo,0.5333,72.9333,28.44,74,5,5.33,MV,1710405744
425,altai,46.3722,96.2583,-0.32,47,100,1.37,MN,1710406012
426,kerikeri,-35.2268,173.9474,18.84,82,4,2.33,NZ,1710406013
427,tabou,4.423,-7.3528,28.23,85,100,2.68,CI,1710406013
428,sitka,57.0531,-135.33,9.94,76,100,13.89,US,1710406014
429,luderitz,-26.6481,15.1594,24.7,37,12,7.67,NA,1710406014
430,varzea da palma,-17.5981,-44.7308,21.14,96,98,0.54,BR,1710406014
431,baise city,23.8997,106.6133,18.2,82,100,2.45,CN,1710406014
432,recani,31.2846,-4.2688,18.56,28,0,3.62,MA,1710406015
433,bandon,51.7469,-8.7425,10.77,98,100,7.98,IE,1710406015
434,tayu,-6.5397,111.0518,26.63,89,100,7.48,ID,1710406015
435,knyaze-volkonskoye,48.4642,135.4567,-0.81,88,85,1.79,RU,1710406015
436,bodaybo,57.8506,114.1933,-7.89,80,100,3.72,RU,1710406016
437,neyshabur,36.2133,58.7958,13.27,29,72,2.17,IR,1710406016
438,alghero,40.5589,8.3181,12.05,94,20,1.03,IT,1710406016
439,uray,60.1247,64.7758,-9.51,82,69,0.89,RU,1710406017
440,quimili,-27.6333,-62.4167,31.66,47,97,6.44,AR,1710406017
441,mariehamn,60.0973,19.9348,2.68,100,100,10.29,AX,1710406018
442,nantucket,41.2835,-70.0995,6.12,87,100,4.63,US,1710405889
443,urangan,-25.3,152.9,25.11,91,48,1.79,AU,1710405834
444,rio gallegos,-51.6226,-69.2181,4.03,65,0,7.72,AR,1710406019
445,el dorado,38.7666,-120.5177,7.29,61,3,0.89,US,1710406020
446,paysandu,-32.3214,-58.0756,25.34,66,27,3.32,UY,1710406020
447,romny,50.751,33.4747,1.45,71,100,4.42,UA,1710406020
448,floro,61.5996,5.0328,6.98,87,75,14.4,NO,1710406021
449,phan rang-thap cham,11.5667,108.9833,30.03,50,3,6.98,VN,1710405755
450,chos malal,-37.3781,-70.2709,9.63,34,0,2.98,AR,1710406021
451,rizokarpaso,35.6,34.375,16.58,66,1,7.91,CY,1710405834
452,grindsted,55.754,8.9123,9.01,100,100,6.17,DK,1710406022
453,nadi,-17.8,177.4167,26.0,94,75,2.57,FJ,1710406022
454,paso de los toros,-32.8167,-56.5167,25.81,56,35,3.35,UY,1710406022
455,teguise,29.0605,-13.564,17.12,77,20,0.0,ES,1710406023
456,la passe,45.5549,-0.8967,13.13,76,98,3.55,FR,1710406023
457,araguari,-18.6472,-48.1872,20.16,95,8,1.68,BR,1710406023
458,pekan,3.4836,103.3996,33.06,66,56,5.28,MY,1710405916
459,thanh hoa,19.8,105.7667,25.11,79,87,5.17,VN,1710405900
460,vernon,50.2581,-119.2691,1.91,69,100,0.89,CA,1710406024
461,villa huidobro,-34.8383,-64.5869,20.15,90,76,4.61,AR,1710406024
462,brookings,44.3114,-96.7984,7.0,52,0,5.66,US,1710406025
463,unai,-16.3575,-46.9061,21.51,96,24,0.33,BR,1710406025
464,eureka,40.8021,-124.1637,6.53,93,8,0.45,US,1710406026
465,las praderas,-3.3348,-79.7984,25.41,91,100,0.63,EC,1710406027
466,nahiyat al fuhud,30.9697,46.7228,27.44,15,4,7.45,IQ,1710406027
467,mor,47.3779,18.2035,9.66,54,18,2.97,HU,1710406028
468,maceio,-9.6658,-35.7353,25.69,94,40,0.51,BR,1710406028
469,tommot,58.9564,126.2925,-7.7,93,100,0.98,RU,1710406029
470,turpan,42.9333,89.1667,15.62,26,100,2.69,CN,1710406029
471,calabozo,8.9242,-67.4293,27.24,59,75,3.8,VE,1710406030
472,shingu,33.7333,135.9833,10.9,65,44,2.75,JP,1710406030
473,merizo village,13.2658,144.6691,28.31,83,100,7.82,GU,1710406030
474,ndele,8.4109,20.6473,33.83,29,96,1.23,CF,1710406031
475,palmer,42.1584,-72.3287,4.23,79,38,0.83,US,1710406031
476,andreyevo,55.9465,41.1505,-1.73,93,100,3.7,RU,1710406032
477,macon,39.8667,-88.9668,18.03,77,0,8.75,US,1710406032
478,happy valley-goose bay,53.3168,-60.3315,-0.83,93,100,1.54,CA,1710406033
479,linxia chengguanzhen,35.6003,103.2064,14.5,33,5,3.16,CN,1710406033
480,zabol,32.25,67.25,10.03,41,0,3.07,AF,1710406033
481,severo-yeniseyskiy,60.3725,93.0408,-8.57,87,100,4.47,RU,1710406034
482,flying fish cove,-10.4217,105.6791,27.82,83,75,4.63,CX,1710406034
483,ban na san,8.8004,99.3637,34.79,54,92,3.18,TH,1710406034
484,naha,26.2125,127.6811,21.38,57,75,3.6,JP,1710405341
485,ghat,24.9647,10.1728,22.78,14,96,1.88,LY,1710406035
486,floresville,29.1336,-98.1561,23.78,84,78,7.24,US,1710406035
487,port douglas,-16.4833,145.4667,27.64,77,85,0.49,AU,1710406035
488,chilecito,-29.1619,-67.4974,25.82,61,49,1.51,AR,1710406036
489,vadnagar,23.7833,72.6333,33.38,13,0,2.71,IN,1710406036
490,amga,60.8953,131.9608,-15.33,95,100,1.2,RU,1710406037
491,tsetserleg,47.475,101.4542,-3.1,84,100,3.02,MN,1710406037
492,priozersk,61.0393,30.1291,2.83,86,100,5.41,RU,1710406037
493,arno,60.1167,18.6333,2.66,91,100,7.71,SE,1710406037
494,quelimane,-17.8786,36.8883,30.97,74,75,2.89,MZ,1710406038
495,kill devil hills,36.0307,-75.676,12.77,82,0,2.06,US,1710406038
496,bubaque,11.2833,-15.8333,25.77,66,24,5.92,GW,1710406038
497,lethbridge,49.7,-112.8186,-1.55,100,100,1.54,CA,1710406039
498,sena madureira,-9.0656,-68.6569,23.5,99,88,0.65,BR,1710406041
499,chibougamau,49.9168,-74.3659,-3.21,100,100,0.0,CA,1710406041
500,yei,4.095,30.6779,36.19,24,29,4.86,SS,1710406042
501,kajiado,-1.8524,36.7768,25.74,43,93,5.82,KE,1710406043
502,alesund,62.4723,6.1549,7.41,78,100,14.92,NO,1710406043
503,eufaula,31.8913,-85.1455,11.64,87,0,0.0,US,1710406043
504,greenville,35.6127,-77.3663,8.09,100,0,0.0,US,1710405977
505,bayanhongor,46.7167,100.1167,-3.79,79,100,0.57,MN,1710406044
506,puerto ayacucho,5.6639,-67.6236,26.37,73,96,1.17,VE,1710406044
507,kuanda,56.3161,116.0806,-5.09,77,100,2.93,RU,1710406045
508,kiruna,67.8557,20.2251,-8.49,86,100,1.54,SE,1710406045
509,douarnenez,48.0954,-4.329,12.5,94,0,4.12,FR,1710406046
510,magadan,59.5667,150.8,-7.88,78,100,3.67,RU,1710406046
511,malanje,-9.5402,16.341,20.79,93,100,0.75,AO,1710406046
512,ovalle,-30.5983,-71.2003,18.09,69,11,0.48,CL,1710406047
513,oosterwolde,52.989,6.2908,11.76,88,100,2.68,NL,1710406047
514,isangel,-19.55,169.2667,26.68,90,81,3.68,VU,1710406047
515,lucapa,-8.4192,20.7447,27.48,69,28,0.24,AO,1710406048
516,hirara,24.8,125.2833,20.15,60,75,1.54,JP,1710406049
517,taulaga,-11.0553,-171.0883,29.39,72,82,4.33,AS,1710406049
518,arys,42.4252,68.795,1.86,61,95,2.84,KZ,1710406049
519,salalah,17.0151,54.0924,31.05,45,0,2.57,OM,1710406050
520,usogorsk,63.4106,48.6872,-4.63,92,100,2.89,RU,1710406050
521,lobujya,27.95,86.8167,-7.15,57,2,4.75,NP,1710406050
522,north scituate,41.8318,-71.5873,4.45,89,0,2.57,US,1710406051
523,omutinskiy,56.4745,67.6709,-4.23,86,100,4.5,RU,1710406051
524,kakonko,-3.2828,30.9642,25.68,70,100,1.26,TZ,1710406052
525,sinjai,-5.1241,120.253,29.23,78,84,1.41,ID,1710406052
526,san luis,-33.295,-66.3356,20.98,95,99,5.51,AR,1710406052
527,tan-tan,28.438,-11.1032,15.97,100,40,3.09,MA,1710406053
528,atbasar,51.8,68.3333,-7.32,88,100,6.86,KZ,1710406053
529,mkushi,-13.6202,29.3939,23.98,84,96,3.13,ZM,1710406053
530,narimanov,46.6927,47.8498,4.97,34,60,10.01,RU,1710406053
531,benton,36.3334,-94.3335,19.31,83,0,5.14,US,1710406054
532,ustka,54.5805,16.8619,9.25,82,100,5.82,PL,1710406054
533,hassi messaoud,31.6804,6.0729,15.92,36,0,2.57,DZ,1710406054
534,gallup,35.5281,-108.7426,0.91,86,100,0.0,US,1710406054
535,tshabong,-26.05,22.45,28.45,13,0,3.4,BW,1710406055
536,bairnsdale,-37.8333,147.6167,19.47,84,94,0.89,AU,1710406055
537,conception bay south,47.4999,-52.9981,1.42,96,99,6.85,CA,1710406056
538,san luis de la loma,17.2706,-100.8939,24.03,66,100,1.84,MX,1710406057
539,vila franca do campo,37.7167,-25.4333,18.27,99,100,5.28,PT,1710406057
540,wedi,-7.7431,110.5794,26.31,89,91,2.36,ID,1710406057
541,tourlaville,49.6383,-1.5664,11.68,87,0,7.2,FR,1710406057
542,shady side,38.8418,-76.5122,13.47,64,0,0.0,US,1710406057
543,powder springs,33.8596,-84.6838,13.05,87,0,0.0,US,1710406058
544,ola,59.5833,151.2833,-6.75,76,100,4.03,RU,1710406058
545,jalai nur,49.45,117.7,0.26,65,76,9.63,CN,1710406058
546,las vegas,36.175,-115.1372,10.88,24,100,15.2,US,1710405907
547,george town,5.4112,100.3354,33.96,55,20,4.12,MY,1710405932
548,viedma,-40.8135,-62.9967,17.85,51,23,6.11,AR,1710405762
549,mata-utu,-13.2816,-176.1745,29.84,72,75,4.15,WF,1710405940
550,shenjiamen,29.9576,122.298,10.87,76,87,2.53,CN,1710406060
551,new iberia,30.0035,-91.8187,21.14,88,100,4.63,US,1710406060
552,narvik,68.4384,17.4272,-2.33,86,100,1.25,NO,1710406060
553,boende,-0.2167,20.8667,34.13,43,2,1.31,CD,1710406060
554,oranjemund,-28.55,16.4333,20.01,55,27,5.29,NA,1710406061
555,humaita,-7.5061,-63.0208,24.35,97,67,1.08,BR,1710406061
556,ouadda,8.0777,22.4007,36.89,23,80,2.49,CF,1710406062
557,alice springs,-23.7,133.8833,36.79,13,2,1.79,AU,1710406062
558,selfoss,63.9331,-20.9971,0.02,66,100,6.17,IS,1710406062
559,igrim,63.1906,64.4162,-7.08,81,25,4.48,RU,1710406062
560,corella,42.1043,-1.7923,9.9,56,56,0.63,ES,1710406062
561,anklam,53.8564,13.6897,11.7,82,100,4.06,DE,1710406063
562,dogondoutchi,13.6393,4.0287,34.48,22,100,0.67,NE,1710406063
563,am timan,11.0297,20.2827,37.24,13,100,2.63,TD,1710406063
